stop_id,stop_code,stop_name,stop_desc,stop_lat,stop_lon,location_type,parent_station
5067236,,"EUROPE SUD","FACE 63 AVENUE DE L'EUROPE (CHAUSSEE NORD) - 78640",48.77938136161233,2.2081920172918177,0,
5067461,,"L'ESCALIER","AVENUE CHARLES DE GAULLE - 92060",48.78301697540244,2.2672241255368664,0,
5067460,,"COEUR DE VILLE","FACE 20 AVENUE CHARLES DE GAULLE - 92060",48.781666562144764,2.263553822814624,0,
5067463,,"TOUR DE L'ETANG","AVENUE DE LA RESISTANCE - 92060",48.783387934514586,2.2715215119852386,0,
5067462,,"L'ESCALIER","AVENUE CHARLES DE GAULLE - 92060",48.78290831132887,2.2658641938640955,0,
5067464,,"TOUR DE L'ETANG","AVENUE DE LA RESISTANCE - 92060",48.78363898332207,2.270419515514898,0,
5067465,,"HOPITAL MARIE LANNELONGUE","138 AVENUE DE LA RESISTANCE - 92060",48.78302093644826,2.274310142531963,0,
5067466,,"HOPITAL MARIE LANNELONGUE","FACE 138 AVENUE DE LA RESISTANCE - 92060",48.78320064519593,2.2742147187596604,0,
5067271,,"LIAISON INOVEL SUD","FACE 45 AVENUE DE L'EUROPE (CHAUSSEE NORD) - 78640",48.778911931683034,2.214748261777173,0,
5067467,,"EDMOND ABOUT","164 AVENUE DE LA RESISTANCE - 92060",48.783373333144176,2.277941156368929,0,
5067468,,"EDMOND ABOUT","FACE 156 AVENUE DE LA RESISTANCE - 92060",48.78346242940878,2.276390549140277,0,
5067469,,"CARREFOUR DES MOUILLEBOEUFS","FACE 74 AVENUE PAUL LANGEVIN - 92032",48.783447627412066,2.2829462104794223,0,
5067187,,"EUROPE SUD","FACE 63 AVENUE DE L'EUROPE (CHAUSSEE NORD) - 78640",48.77938136161233,2.2081920172918177,0,
5067372,,"EGLISE DE MEUDON-LA-FORET","AVENUE DU GENERAL DE GAULLE - 92048",48.78827363382535,2.2294301534623355,0,
5067418,,"ILE DE FRANCE","RUE DE LA PORTE DE TRIVAUX - 92023",48.78544323476882,2.2408340456342417,0,
5067249,,"LIAISON INOVEL SUD","47 AVENUE DE L'EUROPE (CHAUSSEE SUD) - 78640",48.77827409274745,2.2150489567381064,0,
5067452,,"LA CAVEE","1-3 RUE DE LA CAVEE - 92023",48.78797297359984,2.2586617167369663,0,
5067451,,"LA CAVEE","RUE DE LA CAVEE - 92023",48.78780203202974,2.2584035361816652,0,
5067344,,"ROSERAIE","FACE 43 AVENUE DU GENERAL DE GAULLE - 92048",48.78706531716502,2.2251752741142634,0,
5067450,,"HOPITAL ANTOINE BECLERE","AVENUE CLAUDE TREBIGNAUD - 92023",48.78691790681044,2.2535626256996477,0,
5067455,,"DANIEL DE FOE","FACE 7 RUE PIERRE D'ARTAGNAN - 92060",48.78110622722607,2.2587401078248814,0,
5067456,,"DANIEL DE FOE","9 RUE PIERRE D'ARTAGNAN - 92060",48.78067493008257,2.258931162503218,0,
5067453,,"MOULIN DE LA TOUR","FACE 42 RUE PAUL RIVET - 92060",48.785249576251935,2.25858422925446,0,
5067454,,"MOULIN DE LA TOUR","42 RUE PAUL RIVET - 92060",48.78513289467901,2.258829230564299,0,
5067459,,"COEUR DE VILLE","AVENUE CHARLES DE GAULLE - 92060",48.78150498892182,2.2638940624309085,0,
5067287,,"VELIZY 2","AVENUE DE L'EUROPE - 78640",48.784309341393005,2.2193191221212625,0,
5067300,,"VELIZY 2","GARE ROUTIERE - 78640",48.78520787882375,2.219058655400504,0,
5067457,,"CHARLES PASQUA","FACE 9 AVENUE CHARLES DE GAULLE - 92060",48.779310352849166,2.2613947911511785,0,
5067458,,"CHARLES PASQUA","AVENUE CHARLES DE GAULLE - 92060",48.77944492038638,2.261000198237557,0,
5067384,,"GEORGES POMPIDOU","PLACE GEORGES POMPIDOU - 92023",48.785683035514495,2.2373516130290034,0,
7796787,,"PIERRE LOTI","30 RUE DE FONTENAY - 92014",48.784392270249114,2.312854188310717,0,
5067403,,"GEORGES POMPIDOU","ROUTE DU PAVE BLANC - 92023",48.786950459402505,2.237498795439241,0,
5067449,,"HOPITAL ANTOINE BECLERE","231 AVENUE DU GENERAL DE GAULLE - 92023",48.78688321416388,2.2553717242870306,0,
5067483,,"LES BLAGIS","AVENUE JEAN PERRIN - 92032",48.785360359260764,2.3023806406217355,0,
5067448,,"EUGENE BEAUJARD","169 RUE DE LA PORTE DE TRIVAUX - 92023",48.78926265301571,2.2520081681720394,0,
5067482,,"CLEMENCEAU","52 AVENUE DE BOURG LA REINE - 92007",48.78498452219128,2.3085830953806896,0,
5067447,,"CIMETIERE INTERCOMMUNAL","FACE 179 RUE DE LA PORTE DE TRIVAUX - 92023",48.787037998768085,2.2457685628922226,0,
5067485,,"AVENUE LOMBART","FACE 1 AVENUE PAUL LANGEVIN - 92032",48.7842427774519,2.2931190231479297,0,
5067484,,"LEON BLUM","FACE 26 AVENUE JEAN PERRIN - 92032",48.78471150300271,2.2969269749916488,0,
5067481,,"BOURG-LA-REINE RER","PLACE DE LA GARE - 92014",48.78004214128772,2.3130874320121375,0,
5067480,,"BOURG-LA-REINE RER","PLACE DE LA GARE - 92014",48.78004214128772,2.3130874320121375,0,
5067486,,"ILE DE FRANCE","RUE DE LA PORTE DE TRIVAUX - 92023",48.78553290437643,2.2405754511700735,0,
5067487,,"TAPIS VERT","FACE 2 AVENUE ROBERT SCHUMAN - 92048",48.78905975534039,2.2341349515820745,0,
5067488,,"CENTRE COMMERCIAL DE VELIZY-VILLACOUBLAY","12 AVENUE DE L'EUROPE (CHAUSSEE OUEST) - 78640",48.78215142138693,2.2185079860452857,0,
5067474,,"LEON BLUM","30 AVENUE JEAN PERRIN - 92071",48.78461289587934,2.297702321341176,0,
5511405,,"TAPIS VERT","AVENUE ROBERT SCHUMAN - 92048",48.78882610499131,2.234176222510831,0,
5067473,,"AVENUE LOMBART","4 AVENUE JEAN PERRIN - 92071",48.784243313431766,2.2945879445108788,0,
5067472,,"AUGUSTIN CLAUDE","FACE 17BIS AVENUE PAUL LANGEVIN - 92032",48.78352205206312,2.288780935883958,0,
5067471,,"AUGUSTIN CLAUDE","19-21 AVENUE PAUL LANGEVIN - 92032",48.783342292915634,2.288781103636299,0,
5067432,,"CIMETIERE INTERCOMMUNAL","183 RUE DE LA PORTE DE TRIVAUX - 92023",48.78687634148946,2.245932069536149,0,
5067470,,"CARREFOUR DES MOUILLEBOEUFS","181 AVENUE DE LA RESISTANCE - 92032",48.78365354917881,2.2812186713823306,0,
5067322,,"DE LATTRE DE TASSIGNY","14 RUE DE LA PEPINIERE - 92048",48.78561748879787,2.224362308397874,0,
5067479,,"RUE DU 8 MAI 1945","6 RUE DU 8 MAI 1945 - 92014",48.78280200717305,2.3160103090786923,0,
5067477,,"PIERRE LOTI","FACE 30 RUE DE FONTENAY - 92014",48.784293346664036,2.312582211985658,0,
5067364,,"EGLISE DE MEUDON-LA-FORET","13-15 AVENUE DU GENERAL DE GAULLE - 92048",48.7879586489924,2.228981937708429,0,
5067478,,"RUE DU 8 MAI 1945","FACE 43 BOULEVARD DU MARECHAL JOFFRE - 92014",48.782711905190155,2.3147998813643778,0,
5067475,,"LES BLAGIS","87-93 AVENUE DE BOURG LA REINE - 92071",48.78518996011179,2.3036728856596365,0,
5067476,,"CLEMENCEAU","FACE 52 AVENUE DE BOURG LA REINE - 92071",48.78483172379547,2.308569578440949,0,
5067329,,"ROSERAIE","43 AVENUE DU GENERAL DE GAULLE - 92048",48.786921728022854,2.225406815269084,0,
