stop_id,stop_code,stop_name,stop_desc,stop_lat,stop_lon,location_type,parent_station
3893388,,"CLAUDE REGAUD","FACE 47 AVENUE BOUTROUX - 75113",48.821706774177926,2.373187572302347,0,
3893389,,"PORTE D'IVRY","38 AV DE LA PORTE D'IVRY - 75113",48.82059282959358,2.3713901948830167,0,
3893386,,"PORTE DE VITRY","15-17 AVENUE DE LA PORTE DE VITRY - 75113",48.82310745758169,2.3775441621261817,0,
3893387,,"PORTE DE VITRY","21 BOULEVARD MASSENA - 75113",48.82375492013428,2.376496580636877,0,
3893346,,"PYRAMIDES","20 AVENUE DE L'OPERA - 75101",48.866218385077275,2.3343394395157153,0,
3893384,,"REGNAULT","5 BIS RUE DE PATAY - 75113",48.82451004472554,2.376007131149646,0,
3893347,,"PALAIS ROYAL - COMEDIE FRANCAISE","1-3 AVENUE DE L'OPERA - 75101",48.86403446820581,2.334993420779704,0,
3893385,,"REGNAULT","6 RUE DE PATAY - 75113",48.82461782113403,2.3762386106788336,0,
3893348,,"PALAIS ROYAL - COMEDIE FRANCAISE","6 AVENUE DE L'OPERA - 75101",48.86427713063281,2.335170497725097,0,
3893382,,"OUDINE","67 RUE DE PATAY - 75113",48.82610164111861,2.3735309179152484,0,
3893349,,"QUAI FRANCOIS MITTERRAND","QUAI FRANCOIS MITTERRAND - 75101",48.859873277650976,2.333849441440465,0,
3893383,,"OUDINE","62 RUE DE PATAY - 75113",48.826533122816805,2.3732861997525028,0,
3893380,,"PATAY - TOLBIAC","103-105 RUE DE PATAY - 75113",48.82745038137856,2.3715308304362543,0,
3893381,,"PATAY - TOLBIAC","108 RUE DE PATAY - 75113",48.828034729758826,2.3710003248450366,0,
8418736,,"PLACE D'ITALIE - MAIRIE DU 13E","79 AVENUE DES GOBELINS - 75113",48.832505040624575,2.3549934307886256,0,
7170698,,"SAINT-MICHEL - SAINT-GERMAIN","10 BOULEVARD SAINT-MICHEL - 75105",48.852377642312824,2.343464941511734,0,
3893343,,"OPERA - 4 SEPTEMBRE","49 AVENUE DE L'OPERA - 75102",48.86960655910574,2.332554568380394,0,
3893342,,"OPERA","FACE 1 RUE AUBER - 75109",48.871287153820475,2.3317097306442087,0,
3893345,,"PYRAMIDES","25-27 AVENUE DE L'OPERA - 75101",48.866721662313424,2.3337808781120857,0,
3893344,,"OPERA - 4 SEPTEMBRE","38 AVENUE DE L'OPERA - 75102",48.8697773289464,2.3328270241440445,0,
3893341,,"OPERA","1 RUE AUBER - 75109",48.87108942687574,2.33158713662412,0,
3893340,,"AUBER","8 RUE AUBER - 75109",48.87219478360626,2.3300338573501684,0,
3893375,,"NATIONALE","FACE 145 BOULEVARD VINCENT AURIOL - 75113",48.83287221865548,2.3623042060228343,0,
3893376,,"CLISSON","59-61 RUE JEANNE D'ARC - 75113",48.8314154022283,2.365951918269359,0,
3893339,,"AUBER","FACE 8 RUE AUBER - 75109",48.872033003523995,2.3298976383299848,0,
3893377,,"CLISSON","64 RUE JEANNE D'ARC - 75113",48.83159511832635,2.366101766585164,0,
3893378,,"JEANNE D'ARC - EGLISE DE LA GARE","7 RUE JEANNE D'ARC - 75113",48.82911377831339,2.3690679965598767,0,
3893337,,"HAVRE - HAUSSMANN","19 RUE AUBER - 75109",48.8733809275033,2.3274859090230406,0,
3893371,,"PLACE D'ITALIE - AURIOL","FACE 205-207 BOULEVARD VINCENT AURIOL - 75113",48.83125537447471,2.357429810828566,0,
3893338,,"HAVRE - HAUSSMANN","16-18 RUE AUBER - 75109",48.87351575263024,2.327676627244145,0,
3893372,,"LES ALPES","175-177 BOULEVARD VINCENT AURIOL - 75113",48.831740334451986,2.3595128765033015,0,
3893335,,"GARE SAINT-LAZARE","14 PLACE GABRIEL PERI - 75108",48.87512420845009,2.324746962216107,0,
3893373,,"LES ALPES","FACE 179 BOULEVARD VINCENT AURIOL - 75113",48.83184823388633,2.3592542643110175,0,
3893336,,"GARE SAINT-LAZARE","14 PLACE GABRIEL PERI - 75108",48.87512420845009,2.324746962216107,0,
3893374,,"NATIONALE","145 BOULEVARD VINCENT AURIOL - 75113",48.832773294498935,2.3625900490515535,0,
3893370,,"PLACE D'ITALIE - AURIOL","205-207 BOULEVARD VINCENT AURIOL - 75113",48.83104865234577,2.357470570630667,0,
3893379,,"JEANNE D'ARC - EGLISE DE LA GARE","14 RUE JEANNE D'ARC - 75113",48.82926652427411,2.3692314453376437,0,
3893368,,"BANQUIER","57-63 AVENUE DES GOBELINS - 75113",48.834248809681654,2.3537823601834367,0,
3893369,,"PLACE D'ITALIE - MAIRIE DU 13E","74 AVENUE DES GOBELINS - 75113",48.83233431432928,2.3547347115200137,0,
3893361,,"FEUILLANTINES","49-51 RUE GAY-LUSSAC - 75105",48.841637574364405,2.3435045040350824,0,
3893360,,"FEUILLANTINES","76 RUE GAY-LUSSAC - 75105",48.84169151496391,2.343204954429883,0,
3893363,,"BERTHOLLET - VAUQUELIN","70 RUE CLAUDE BERNARD - 75105",48.84046904641703,2.3458599080092717,0,
3893362,,"BERTHOLLET - VAUQUELIN","43 RUE CLAUDE BERNARD - 75105",48.84002861889747,2.346363617701741,0,
3893365,,"MONGE - CLAUDE BERNARD","FACE 3-5 RUE CLAUDE BERNARD - 75105",48.838770005097885,2.3502029451190003,0,
3893364,,"MONGE - CLAUDE BERNARD","5 RUE CLAUDE BERNARD - 75105",48.83859026416306,2.350107592645486,0,
3893367,,"BANQUIER","50 AVENUE DES GOBELINS - 75113",48.834176950124636,2.3534828245635113,0,
3893366,,"LES GOBELINS","26 AVENUE DES GOBELINS - 75113",48.8363880998256,2.351917814788917,0,
3893393,,"LES ECOLES","29-31 BOULEVARD SAINT-MICHEL - 75105",48.850067906070635,2.3425522330838273,0,
3893359,,"SAINT-JACQUES - GAY-LUSSAC","29 RUE GAY-LUSSAC - 75105",48.843875523629535,2.342388199416716,0,
3893394,,"SAINT-MICHEL - SAINT-GERMAIN","1 BOULEVARD SAINT-MICHEL - 75105",48.85296179377503,2.34407787300629,0,
3893395,,"SAINT-MICHEL","FACE 15-17 QUAI DES GRANDS AUGUSTINS - 75106",48.85415714947943,2.343642207604387,0,
3893357,,"LUXEMBOURG","5-7 RUE GAY-LUSSAC - 75105",48.84641903862287,2.3411220304526323,0,
3893396,,"PONT NEUF - QUAI DES GRANDS AUGUSTINS","FACE 55 QUAI DES GRANDS AUGUSTINS - 75106",48.85583791617629,2.3409320544688788,0,
3893358,,"SAINT-JACQUES - GAY-LUSSAC","40 RUE GAY-LUSSAC - 75105",48.843740719935035,2.34217031848191,0,
3893397,,"PONT DES ARTS - QUAI DE CONTI","FACE 23 QUAI DE CONTI - 75106",48.85768938378177,2.3374453668304107,0,
3893398,,"PONT DU CARROUSEL - QUAI VOLTAIRE","FACE 21 QUAI MALAQUAIS - 75106",48.85826452640826,2.333713341644251,0,
3893399,,"MUSEE DU LOUVRE","PLACE DU CARROUSEL - 75101",48.86208420418041,2.3349253980583433,0,
3893400,,"PETITS CHAMPS - DANIELLE CASANOVA","30-32 AVENUE DE L'OPERA - 75102",48.86817760577774,2.3335219409225676,0,
3893390,,"PORTE D'IVRY","50 AVENUE DE LA PORTE D'IVRY - 75113",48.821384203559546,2.369757412184068,0,
3893391,,"MASSENA - DARMESTETER","FACE 20 BOULEVARD MASSENA - 75113",48.82323415815727,2.374876436715813,0,
3893392,,"LES GOBELINS","21 AVENUE DES GOBELINS - 75105",48.83725093710796,2.3516729882807454,0,
3893352,,"PONT NEUF - QUAI DES ORFEVRES","FACE 68 QUAI DES ORFEVRES - 75101",48.85657487118363,2.3413815698445117,0,
3893351,,"PONT NEUF - QUAI DU LOUVRE","FACE 14 QUAI DU LOUVRE - 75101",48.858552098125074,2.3415724158254143,0,
3893350,,"PONT DES ARTS","QUAI FRANCOIS MITTERRAND - 75101",48.859046477901266,2.338494169074047,0,
3893356,,"LUXEMBOURG","FACE 5 RUE GAY-LUSSAC - 75105",48.84632917208576,2.3408496756727897,0,
3893355,,"LES ECOLES","38 BOULEVARD SAINT-MICHEL - 75106",48.84978931329091,2.342102800318699,0,
3893353,,"PONT SAINT-MICHEL - QUAI DES ORFEVRES","4 QUAI DES ORFEVRES - 75101",48.85463346706191,2.343955516715223,0,
