stop_id,stop_code,stop_name,stop_desc,stop_lat,stop_lon,location_type,parent_station
7931393,,"CURNONSKY","10 RUE RAYMOND PITET - 75117",48.889964875279475,2.296654282074075,0,
7931318,,"ALSACE","9 RUE VICTOR HUGO - 92044",48.89320123324828,2.299623025967514,0,
7931319,,"PORTE D'ASNIERES - MARGUERITE LONG","19 AVENUE DE LA PORTE D'ASNIERES - 75117",48.891341610116235,2.3019822332548703,0,
7931391,,"PORTE D'ASNIERES - MARGUERITE LONG","22 AVENUE DE LA PORTE D'ASNIERES - 75117",48.890739802388154,2.3031274849630954,0,
7931390,,"JULIETTE LAMBER","188-190 BOULEVARD MALESHERBES - 75117",48.88826872236327,2.3045464679733043,0,
7931317,,"LOUISON BOBET","FACE 23 RUE D'ALSACE - 92044",48.89155539581109,2.2960397181724863,0,
7931359,,"PORTE DES LILAS","FACE 3 RUE CHARLES CROS - 75120",48.87661375403987,2.407956676523892,0,
7931358,,"PORTE DES LILAS","RUE DES GLAIEULS - 75120",48.87713467540468,2.408529657997274,0,
7931395,,"REIMS - HOTEL DES IMPOTS","4 BOULEVARD DE REIMS - 75117",48.891988178822736,2.300305376823297,0,
7931394,,"LOUISON BOBET","FACE 23 RUE D'ALSACE - 92044",48.89155539581109,2.2960397181724863,0,
7931354,,"PIXERECOURT","212-218 RUE DE BELLEVILLE - 75120",48.87520940811392,2.395665016734033,0,
7931355,,"PELLEPORT - BELLEVILLE","RUE DE BELLEVILLE - 75120",48.875548837113016,2.39978017411952,0,
7931356,,"HAXO","280 RUE DE BELLEVILLE - 75120",48.875978601408804,2.4028054859715406,0,
7931357,,"PORTE DES LILAS - METRO","328 RUE DE BELLEVILLE - 75120",48.87689363336649,2.4057769882365934,0,
7931350,,"JULIEN LACROIX","FACE 55 RUE DE BELLEVILLE - 75119",48.87309451333659,2.3814795956136874,0,
7931351,,"PYRENEES - BELLEVILLE","88-90 RUE DE BELLEVILLE - 75120",48.87372221915728,2.385117899504746,0,
7931352,,"JOURDAIN","134 RUE DE BELLEVILLE - 75120",48.87477226370445,2.388647712129114,0,
7931353,,"RUE DES FETES","174-176 RUE DE BELLEVILLE - 75119",48.87534560482418,2.392763039051633,0,
8007559,,"PYRENEES - BELLEVILLE","95 RUE DE BELLEVILLE - 75119",48.874054617631856,2.3854451988999683,0,
7931380,,"OPERA","6 BOULEVARD DES CAPUCINES - 75109",48.87088277826318,2.333031287561144,0,
7931382,,"HAVRE - HAUSSMANN","16-18 RUE AUBER - 75109",48.87351575263024,2.327676627244145,0,
7931381,,"AUBER","8 RUE AUBER - 75109",48.87219478360626,2.3300338573501684,0,
7931388,,"JOUFFROY D'ABBANS - MALESHERBES","144 BOULEVARD MALESHERBES - 75117",48.88555522599217,2.306973912526337,0,
7931387,,"PLACE DU GENERAL CATROUX","BOULEVARD MALESHERBES - 75117",48.88203323800927,2.311241153101967,0,
7931389,,"WAGRAM - PEREIRE","PLACE DE WAGRAM - 75117",48.88741511213837,2.305187531964956,0,
7931384,,"SAINT-AUGUSTIN","112 BOULEVARD HAUSSMANN - 75108",48.874710306838004,2.3207549785527783,0,
7931383,,"PASQUIER - ANJOU","94 BOULEVARD HAUSSMANN - 75108",48.87438708312887,2.323248414952679,0,
7931349,,"BELLEVILLE","4 RUE DE BELLEVILLE - 75120",48.87212533036264,2.3773915146330897,0,
7931386,,"MALESHERBES - COURCELLES","92 BOULEVARD MALESHERBES - 75108",48.88064057924993,2.3129724069391546,0,
7931348,,"RAMPONEAU","114 BOULEVARD DE BELLEVILLE - 75120",48.87120838746788,2.378085625723845,0,
7931385,,"LISBONNE - MAIRIE DU 8E","60 BOULEVARD MALESHERBES - 75108",48.87763952473994,2.316652732221454,0,
7931347,,"COURONNES","48 BOULEVARD DE BELLEVILLE - 75120",48.86886163360014,2.381067285501073,0,
7931345,,"SAINT-MAUR - JEAN AICARD","120 RUE OBERKAMPF - 75111",48.866112001913585,2.3796890795072163,0,
7931346,,"BELLEVILLE - MENILMONTANT","6 BD DE BELLEVILLE - 75111",48.86734201336139,2.3830821942789715,0,
7931343,,"FERRY - LENOIR","22 AVENUE DE LA REPUBLIQUE - 75111",48.86627718665484,2.3686821184197355,0,
7931344,,"PARMENTIER - REPUBLIQUE","80 RUE OBERKAMPF - 75111",48.86531329081279,2.3762828281298214,0,
7931341,,"REPUBLIQUE - MAGENTA","FACE 16 PLACE DE LA REPUBLIQUE - 75110",48.86820187894899,2.362838954132777,0,
7931342,,"REPUBLIQUE","FACE 10 PLACE DE LA REPUBLIQUE - 75111",48.86714090245713,2.364936352609631,0,
7931340,,"TURBIGO - REPUBLIQUE","164-166 RUE DU TEMPLE - 75103",48.86625191048184,2.361462105708011,0,
7931336,,"REAUMUR - SEBASTOPOL","61-63 RUE REAUMUR - 75102",48.86648726254369,2.350877379276764,0,
7931337,,"REAUMUR - ARTS ET METIERS","37-39 RUE REAUMUR - 75103",48.8657228770052,2.354432650160017,0,
7931338,,"ARTS ET METIERS","23-25 RUE REAUMUR - 75103",48.86519223447785,2.356938988179183,0,
7931339,,"SQUARE DU TEMPLE","FACE 171 RUE DU TEMPLE - 75103",48.864922057035535,2.36005838930416,0,
7931372,,"REPUBLIQUE","12 PLACE DE LA REPUBLIQUE - 75110",48.868039861543714,2.363955968897187,0,
7931373,,"LANCRY - SAINT-MARTIN","FACE 15 BOULEVARD SAINT-MARTIN - 75110",48.86831016723941,2.3607001687558746,0,
7931374,,"PORTE SAINT-MARTIN","20 BOULEVARD SAINT-MARTIN - 75110",48.8690030013526,2.356150280147278,0,
7931375,,"PORTE SAINT-DENIS","12-14 BOULEVARD DE BONNE NOUVELLE - 75102",48.86990231844513,2.3520226585912565,0,
7931376,,"POISSONNIERE - BONNE NOUVELLE","4 BOULEVARD POISSONNIERE - 75109",48.87084646432337,2.3474861878041238,0,
7931377,,"GRANDS BOULEVARDS","32 BOULEVARD POISSONNIERE - 75109",48.87153877146487,2.3433582449134955,0,
7931378,,"RICHELIEU - DROUOT","2 BOULEVARD DES ITALIENS - 75109",48.87195232806171,2.3392438053086133,0,
7931379,,"CHOISEUL","26 BOULEVARD DES ITALIENS - 75109",48.87143107549418,2.3362192580847188,0,
7931331,,"OPERA - 4 SEPTEMBRE","35 RUE DU 4 SEPTEMBRE - 75102",48.87010088424911,2.333140340403381,0,
7931330,,"OPERA","3 RUE AUBER - 75109",48.87123321218385,2.3313418899103016,0,
7931333,,"BOURSE","11 PLACE DE LA BOURSE - 75102",48.8686898950085,2.3406332542400126,0,
7931332,,"RICHELIEU - 4 SEPTEMBRE","7 RUE DU 4 SEPTEMBRE - 75102",48.86917525585135,2.3381810732063615,0,
7931370,,"GONCOURT","65 RUE DU FAUBOURG DU TEMPLE - 75111",48.86989862659334,2.3703872629076637,0,
7931335,,"SENTIER","91 RUE REAUMUR - 75102",48.86740438643242,2.3465863945789227,0,
7931371,,"JULES FERRY","31-33 RUE DU FAUBOURG DU TEMPLE - 75111",48.86897362596347,2.36778461159907,0,
7931334,,"REAUMUR - MONTMARTRE","105 RUE REAUMUR - 75102",48.86790783866815,2.3442433170164008,0,
7931327,,"GARE SAINT-LAZARE","119-121 RUE SAINT-LAZARE - 75108",48.875295025772914,2.325319171513675,0,
7931328,,"HAVRE - HAUSSMANN","19 RUE AUBER - 75109",48.8733809275033,2.3274859090230406,0,
7931325,,"LISBONNE - MAIRIE DU 8E","81-83 BOULEVARD MALESHERBES - 75108",48.87755857985456,2.316312124207015,0,
7931326,,"SAINT-AUGUSTIN","FACE 24 RUE DE LA PEPINIERE - 75108",48.874872097017594,2.3208911760771413,0,
7931329,,"AUBER","FACE 8 RUE AUBER - 75109",48.872033003523995,2.3298976383299848,0,
7931369,,"FAUBOURG DU TEMPLE - PIVER","105 RUE DU FAUBOURG DU TEMPLE - 75111",48.871012063916325,2.3737803224899277,0,
7931363,,"PIXERECOURT","FACE 198 RUE DE BELLEVILLE - 75120",48.87532679193145,2.3945342719984017,0,
7931364,,"RUE DES FETES","163-165 RUE DE BELLEVILLE - 75120",48.875507866443876,2.3917004572324676,0,
7931361,,"HAXO","301 RUE DE BELLEVILLE - 75120",48.87610442343438,2.4028056450624984,0,
7931362,,"PELLEPORT - BELLEVILLE","245-247 RUE DE BELLEVILLE - 75119",48.875460170880956,2.3974365569554887,0,
7931367,,"JULIEN LACROIX","55-57 RUE DE BELLEVILLE - 75119",48.87326528739543,2.3814388678449023,0,
7931368,,"BELLEVILLE","5 RUE DE BELLEVILLE - 75119",48.87235895924468,2.377514313676753,0,
7931365,,"JOURDAIN","133 RUE DE BELLEVILLE - 75119",48.87481729402142,2.388429758539716,0,
7931320,,"JULIETTE LAMBER","195 BOULEVARD MALESHERBES - 75117",48.888358507928764,2.3042329570350892,0,
7931324,,"MALESHERBES - COURCELLES","117 BOULEVARD MALESHERBES - 75108",48.8805506396015,2.3126454156147407,0,
7931323,,"PLACE DU GENERAL CATROUX","BOULEVARD MALESHERBES - 75117",48.8820511286087,2.310859594051465,0,
7931360,,"PORTE DES LILAS - METRO","349 RUE DE BELLEVILLE - 75120",48.87698358444833,2.40564085252094,0,
7931322,,"JOUFFROY D'ABBANS - MALESHERBES","147 BOULEVARD MALESHERBES - 75117",48.88473754293242,2.3075876274427243,0,
7931321,,"WAGRAM - PEREIRE","179 BOULEVARD MALESHERBES - 75117",48.88660629260675,2.3052970562220403,0,
