stop_id,stop_code,stop_name,stop_desc,stop_lat,stop_lon,location_type,parent_station
4199329,,"CLOS FRANCAIS","31 RUE DES CLOS FRANCAIS - 93048",48.86552451630694,2.432189521609298,0,
4199372,,"CHARLES GARCIA","AVENUE CHARLES GARCIA - 94033",48.85332347355978,2.4819455711423513,0,
4199328,,"DELPECHE","FACE 6 RUE DELPECHE - 93048",48.86419628310262,2.4297759772651273,0,
4199371,,"GENERAL DE GAULLE","PLACE DU GENERAL DE GAULLE - 94033",48.85260933136605,2.4853074908421364,0,
4199327,,"DELPECHE","6 RUE DELPECHE - 93048",48.86403433033072,2.4300072633741188,0,
4199370,,"VAL-DE-FONTENAY RER","8 AV DU VAL DE FONTENAY - 94033",48.85368401035974,2.488347675701163,0,
4199326,,"LA NOUE","7 RUE DE LA NOUE - 93006",48.866093989595534,2.4279948022338496,0,
4199325,,"LA NOUE","FACE 7 RUE DE LA NOUE - 93006",48.86598626569705,2.427831142823777,0,
4199376,,"CENTRE ADMINISTRATIF","5 RUE DE ROSNY - 93048",48.86082320601623,2.4438815440753667,0,
4199324,,"CHARLES DELESCLUZE","FACE 6 RUE JEAN LOLIVE - 93006",48.865780747382814,2.4262505714045215,0,
4199375,,"LOUISE MICHEL","RUE BABEUF - 93048",48.86777038940942,2.4707059938981955,0,
4199323,,"CHARLES DELESCLUZE","2 RUE JEAN LOLIVE - 93006",48.86561911720595,2.4260595793062243,0,
4199374,,"JULES GUESDE","FACE 287 AV DE LA REPUBLIQUE - 93064",48.862328741409016,2.482066048514456,0,
4199322,,"PIERRE CURIE","RUE LENINE - 93006",48.868990600448974,2.4244033032798584,0,
4199373,,"CIMETIERE DE VINCENNES","FACE 239 AVENUE VICTOR HUGO - 94033",48.85994861762231,2.4807926491059042,0,
4199379,,"LA POSTE","23 RUE ADELAIDE LAHAYE - 93006",48.86754005980411,2.4166630116229832,0,
4199320,,"EGLISE DE BAGNOLET","FACE 6-10 RUE LENINE - 93006",48.87006263142268,2.42086295744223,0,
4199321,,"PIERRE CURIE","54 RUE LENINE - 93006",48.86895507816368,2.423817439339642,0,
4199377,,"MAIRIE DE MONTREUIL - ROUGET DE LISLE","2 BOULEVARD ROUGET DE LISLE - 93048",48.86197601119085,2.4411459879071593,0,
4199378,,"MARIE-ANNE COLOMBIER","FACE 68 AVENUE GAMBETTA - 93006",48.87054163948335,2.41695370781144,0,
4199338,,"VICTOR HUGO","38 BOULEVARD ROUGET DE LISLE - 93048",48.86014445221433,2.4389765728566224,0,
4199361,,"LE MORILLON","FACE 65 RUE PIERRE BROSSOLETTE - 93048",48.86464315105416,2.4781901745428647,0,
4199360,,"LE MORILLON","61 RUE PIERRE BROSSOLETTE - 93048",48.864264631089206,2.4790745846172895,0,
4199339,,"MAIRIE DE MONTREUIL","ENTRE 3-5 BOULEVARD ROUGET DE LISLE - 93048",48.86154477089314,2.440968045628778,0,
4199334,,"CROIX DE CHAVAUX-METRO","8 AVENUE DE LA RESISTANCE - 93048",48.85886096918219,2.4369445702581713,0,
4199363,,"CIMETIERE DE VINCENNES","261 AVENUE VICTOR HUGO - 93048",48.860568468376464,2.481025924558556,0,
4199362,,"JULES GUESDE","289 BIS AVENUE VICTOR HUGO - 93048",48.86284092235296,2.482149209358743,0,
4199333,,"CROIX DE CHAVAUX-METRO","15 AVENUE DE LA RESISTANCE - 93048",48.858879273926604,2.436549604849951,0,
4199336,,"CROIX DE CHAVAUX - ROUGET DE LISLE","62 BOULEVARD ROUGET DE LISLE - 93048",48.85856427056822,2.4370802062081176,0,
4199365,,"LA FONTAINE","209 RUE LA FONTAINE - 94033",48.8584205955465,2.4809246260092555,0,
4199335,,"CROIX DE CHAVAUX - ROUGET DE LISLE","55 BOULEVARD ROUGET DE LISLE - 93048",48.85851012893523,2.437338893646467,0,
4199364,,"LA FONTAINE","11 AV CHARLES GARCIA - 94033",48.857341200605816,2.4816707533851594,0,
4199366,,"JEAN MACE","FACE 18 AV CHARLES GARCIA - 94033",48.85568744952846,2.48172062807965,0,
4199330,,"CLOS FRANCAIS","FACE 33 RUE DES CLOS FRANCAIS - 93048",48.8655875904924,2.4319853000177134,0,
4199367,,"JEAN MACE","14 AV CHARLES GARCIA - 94033",48.85570499434792,2.4820747940571213,0,
4199331,,"RABELAIS","FACE 86 AVENUE DE LA RESISTANCE - 93048",48.86300453326187,2.4365030166710864,0,
4199368,,"PABLO PICASSO","10-12 AV DES OLYMPIADES - 94033",48.85522387800214,2.4859550831419543,0,
4199332,,"RABELAIS","80-82 AVENUE DE LA RESISTANCE - 93048",48.862707562958086,2.4369655866379767,0,
4199369,,"VAL-DE-FONTENAY RER","AVENUE DES OLYMPIADES - 94033",48.85380076063956,2.4884161127614495,0,
4199347,,"SAINT-JUST","1 RUE PAUL DOUMER - 93048",48.861197910106966,2.4562913391114183,0,
4199346,,"SAINT-JUST","RUE PAUL DOUMER - 93048",48.861243064637435,2.4560735013879555,0,
4199345,,"NOUVEAU CIMETIERE DE MONTREUIL","AVENUE JEAN MOULIN - 93048",48.861156472716615,2.45273608142788,0,
4199344,,"NOUVEAU CIMETIERE DE MONTREUIL","AVENUE JEAN MOULIN - 93048",48.8613442131349,2.4537581016105063,0,
4199349,,"LENAIN DE TILLEMONT","21 RUE DU BEL AIR - 93048",48.860466996817955,2.4591909625729285,0,
4199348,,"LENAIN DE TILLEMONT","FACE 9 RUE ANATOLE FRANCE - 93048",48.86094210965425,2.460377129118468,0,
4199342,,"COLLEGE JEAN MOULIN","RUE GALILEE - 93048",48.859811140728205,2.4498318215390626,0,
4199343,,"COLLEGE JEAN MOULIN","RUE GALILEE - 93048",48.8599819913967,2.4497368453997925,0,
4199340,,"EUGENE VARLIN","FACE 23 TE RUE GALILEE - 93048",48.86081974368124,2.447681857864659,0,
4199341,,"EUGENE VARLIN","23 RUE GALILEE - 93048",48.86090956709095,2.447736534115838,0,
4199356,,"BABEUF","42 RUE DES BLANCS VILAINS - 93048",48.867038081057665,2.474518510720033,0,
4199319,,"EGLISE DE BAGNOLET","6 RUE LENINE - 93006",48.86989218679323,2.4204131038013523,0,
4199355,,"PARC DE MONTREAU","112 BOULEVARD THEOPHILE SUEUR - 93048",48.86601061431374,2.469134866864839,0,
4199358,,"CHARLES DELAVACQUERIE","RUE CHARLES DELAVACQUERIE - 93048",48.86588454639278,2.477226346724179,0,
4199357,,"BABEUF","70 RUE DES BLANCS VILAINS - 93048",48.8672714062728,2.474818832716869,0,
4199380,,"CENTRE DE SANTE","13 RUE SADI CARNOT - 93006",48.86699095256208,2.41796996305945,0,
4199359,,"CHARLES DELAVACQUERIE","69 RUE DES BLANCS VILAINS - 93048",48.86654076682577,2.477105513509204,0,
4199315,,"GALLIENI-METRO","AVENUE DU GENERAL DE GAULLE - 93006",48.86458307312071,2.4168764386958532,0,
4199316,,"GALLIENI-METRO","RUE GARE ROUTIERE - 93006",48.865328842206885,2.4171500318246646,0,
4199317,,"MAIRIE DE BAGNOLET","48 RUE SADI CARNOT - 93006",48.86815870458364,2.41885728522245,0,
4199318,,"MAIRIE DE BAGNOLET","29 AVENUE GAMBETTA - 93006",48.86923939789337,2.4155621165197254,0,
4199350,,"NOUVELLE FRANCE","FACE 134 RUE DE LA NOUVELLE FRANCE - 93048",48.86299660841789,2.4638283219200012,0,
4199351,,"NOUVELLE FRANCE","134 RUE DE LA NOUVELLE FRANCE - 93048",48.862933870361,2.4636647074052225,0,
4199352,,"LES RUFFINS","BOULEVARD THEOPHILE SUEUR - 93048",48.86358627135531,2.467085408141435,0,
4199353,,"LES RUFFINS","152 BOULEVARD THEOPHILE SUEUR - 93048",48.86423307945557,2.4673458479082804,0,
4199354,,"PARC DE MONTREAU","31 BOULEVARD THEOPHILE SUEUR - 93048",48.86661184393446,2.4699673837264884,0,
