stop_id,stop_code,stop_name,stop_desc,stop_lat,stop_lon,location_type,parent_station
7714374,,"PORTE DE COURCELLES","158 BOULEVARD BERTHIER - 75117",48.88670236338325,2.296193485091651,0,
7714337,,"PORTE DE SAINT-CLOUD - MURAT","124 BOULEVARD MURAT - 75116",48.83718114590388,2.2589820165707,0,
7714373,,"PORTE DE COURCELLES","9 AVENUE EMILE ET ARMAND MASSARD - 75117",48.88802350142609,2.2962469519499322,0,
7714338,,"PORTE DE SAINT-CLOUD - MICHEL ANGE","109 BOULEVARD MURAT - 75116",48.83889641960836,2.256950725379323,0,
7714372,,"PORTE DE CHAMPERRET","135 AVENUE DE VILLIERS - 75117",48.885649560413256,2.2925829691367388,0,
7714335,,"VERSAILLES - CHARDON LAGACHE","27 RUE CLAUDE TERRASSE - 75116",48.838837106438454,2.262478687427494,0,
7714371,,"PORTE DE CHAMPERRET","PLACE STUART MERRILL - 75117",48.885991038870486,2.292487280070564,0,
7714336,,"PORTE DE SAINT-CLOUD - MURAT","232 AVENUE DE VERSAILLES - 75116",48.838277061946464,2.258122599558915,0,
7714333,,"VERSAILLES - EXELMANS","173BIS-175 AVENUE DE VERSAILLES - 75116",48.84041127623981,2.264654955671404,0,
7714370,,"PORTE DE VILLIERS","28 BOULEVARD GOUVION-SAINT-CYR - 75117",48.883328927509616,2.2877064578922117,0,
7714334,,"VERSAILLES - CHARDON LAGACHE","186 AVENUE DE VERSAILLES - 75116",48.83920477695226,2.2611846812238183,0,
7714331,,"PONT DU GARIGLIANO - HOPITAL EUROPEEN GEORGES POMPIDOU","BOULEVARD DU GENERAL MARTIAL VALIN - 75115",48.83830249652028,2.270281026285784,0,
7714332,,"VERSAILLES - EXELMANS","168 AVENUE DE VERSAILLES - 75116",48.84049189771527,2.264219134778155,0,
7714330,,"PONT DU GARIGLIANO - HOPITAL EUROPEEN GEORGES POMPIDOU","1 BOULEVARD DU GENERAL MARTIAL VALIN - 75115",48.838706829406426,2.2700898886489083,0,
7714379,,"PORTE MAILLOT - PALAIS DES CONGRES","FACE 93 BOULEVARD GOUVION-SAINT-CYR - 75117",48.878707984696156,2.284236266860388,0,
7714378,,"GOURGAUD - PAUL ADAM","134 BOULEVARD BERTHIER - 75117",48.887925614289436,2.2991771211380807,0,
7714377,,"PORTE D'ASNIERES - MARGUERITE LONG","1 AVENUE DE LA PORTE D'ASNIERES - 75117",48.890254595422334,2.3034821570257105,0,
7714376,,"PORTE D'ASNIERES - MARGUERITE LONG","13 AVENUE DE LA PORTE D'ASNIERES - 75117",48.890820553446446,2.302664042580284,0,
7714375,,"BRUNETIERE","21 AV BRUNETIERE - 75117",48.889750256299024,2.2999389942248882,0,
7714339,,"PORTE DE SAINT-CLOUD - MICHEL ANGE","98 BOULEVARD MURAT - 75116",48.83890518633943,2.2566239407147366,0,
7714346,,"ALFRED CAPUS","85 BOULEVARD SUCHET - 75116",48.85032177278684,2.260296796954429,0,
7714347,,"ALFRED CAPUS","118 BOULEVARD SUCHET - 75116",48.850276623773084,2.2599700212197678,0,
7714348,,"RAFFET","51 BOULEVARD SUCHET - 75116",48.85343272036455,2.262307833939749,0,
7714349,,"RAFFET","BOULEVARD SUCHET - 75116",48.85332460452747,2.261885793516651,0,
7714342,,"PORTE MOLITOR","33 BOULEVARD MURAT - 75116",48.8449274125874,2.257472454392711,0,
7714343,,"PORTE MOLITOR","FACE 31 BOULEVARD MURAT - 75116",48.84485529308673,2.257145756731432,0,
7714344,,"PORTE D'AUTEUIL","5 BOULEVARD MURAT - 75116",48.847049206744096,2.2585858343334144,0,
7714345,,"PORTE D'AUTEUIL","10 BOULEVARD MURAT - 75116",48.846878146577424,2.258136714439632,0,
7714380,,"PORTE DE SAINT-CLOUD","PLACE DE LA PORTE DE SAINT-CLOUD - 75116",48.838006125239545,2.256176035412942,0,
7714340,,"LYCEE CLAUDE BERNARD","FACE 62 BOULEVARD MURAT - 75116",48.84212244092079,2.2561968350770245,0,
7714341,,"LYCEE CLAUDE BERNARD","62 BOULEVARD MURAT - 75116",48.84204134883213,2.2558974034932535,0,
7714352,,"ERNEST HEBERT","3 BOULEVARD SUCHET - 75116",48.86076033616534,2.266996558099432,0,
7714351,,"PORTE DE PASSY","44 BOULEVARD SUCHET - 75116",48.85707387602076,2.2643047462748194,0,
7714350,,"PORTE DE PASSY","35 BOULEVARD SUCHET - 75116",48.85764950277343,2.2650121964813232,0,
7714356,,"DUFRENOY","43 BOULEVARD LANNES - 75116",48.86617326732225,2.2714165757339324,0,
7714355,,"PORTE DE LA MUETTE","FACE 75 BOULEVARD LANNES - 75116",48.86361937262192,2.2687907819525828,0,
7714354,,"PORTE DE LA MUETTE","77 BOULEVARD LANNES - 75116",48.86339478978284,2.2689681630216594,0,
7714353,,"ERNEST HEBERT","12 BOULEVARD SUCHET - 75116",48.86067922402239,2.2666152750224673,0,
7714359,,"LONGCHAMP","FACE 15 BOULEVARD LANNES - 75116",48.868393961885,2.2729123084482183,0,
7714358,,"LONGCHAMP","15 BOULEVARD LANNES - 75116",48.86831324458991,2.273225741785854,0,
7714357,,"DUFRENOY","FACE 43 BOULEVARD LANNES - 75116",48.86628995211967,2.271143974577282,0,
7714361,,"PORTE DAUPHINE - MARECHAL DE LATTRE DE TASSIGNY","BOULEVARD LANNES - 75116",48.87068657535412,2.274489824916088,0,
7714360,,"PORTE DAUPHINE - MARECHAL DE LATTRE DE TASSIGNY","BOULEVARD LANNES - 75116",48.870803788776946,2.275211746329278,0,
7714363,,"MARBEAU","BOULEVARD DE L'AMIRAL BRUIX - 75116",48.87535355134824,2.2795526866497604,0,
7714362,,"MARBEAU","38 BOULEVARD DE L'AMIRAL BRUIX - 75116",48.8749759460806,2.2792669833390873,0,
7714365,,"PORTE MAILLOT - MALAKOFF","FACE 9 BOULEVARD DE L'AMIRAL BRUIX - 75116",48.876334372476215,2.2820995239578217,0,
7714364,,"PORTE MAILLOT - MALAKOFF","11 BOULEVARD DE L'AMIRAL BRUIX - 75116",48.876397453186705,2.2824673400796414,0,
7714367,,"GENERAL KOENIG - PALAIS DES CONGRES","1 BOULEVARD PERSHING - 75117",48.881512471570815,2.2852826505752537,0,
7714366,,"PORTE MAILLOT - PERSHING","11 BOULEVARD PERSHING - 75117",48.88058622525525,2.2840163234582294,0,
7714369,,"PORTE DE VILLIERS","FACE 24 BOULEVARD GOUVION-SAINT-CYR - 75117",48.883949638361095,2.289150357249773,0,
7714368,,"GENERAL KOENIG - PALAIS DES CONGRES","48 BOULEVARD GOUVION-SAINT-CYR - 75117",48.88100019236444,2.285269537643439,0,
