stop_id,stop_code,stop_name,stop_desc,stop_lat,stop_lon,location_type,parent_station
7921141,,"PYRENEES - BAGNOLET","102 BIS RUE DE BAGNOLET - 75120",48.85935207318544,2.4026618826291215,0,
7921140,,"LA REUNION","67-69 RUE DE BAGNOLET - 75120",48.857709119091915,2.399404535835359,0,
7921147,,"ECHANGEUR DE BAGNOLET","7 AVENUE CARTELLIER - 75120",48.86476609964476,2.411809241975129,0,
7921146,,"PORTE DE BAGNOLET","FACE 4 AVENUE DE LA PORTE DE BAGNOLET - 75120",48.864785410194465,2.4096433309569973,0,
7921149,,"GENERAL DE GAULLE","25 AVENUE DE LA REPUBLIQUE - 93006",48.86268750480128,2.4157156831772415,0,
7921148,,"GENERAL DE GAULLE","RUE DU CHATEAU - 93006",48.862912243186486,2.4156342926225824,0,
7921143,,"PELLEPORT - BAGNOLET","148 RUE DE BAGNOLET - 75120",48.8620193573115,2.406165979773254,0,
7921142,,"PYRENEES - BAGNOLET","105 RUE DE BAGNOLET - 75120",48.859406109656675,2.402457638147213,0,
7921145,,"PORTE DE BAGNOLET","2 AVENUE DE LA PORTE DE BAGNOLET - 75120",48.86455178820427,2.409561271654804,0,
7921144,,"PELLEPORT - BAGNOLET","141-143 RUE DE BAGNOLET - 75120",48.86208239491901,2.40594811880992,0,
7921152,,"MAIRIE DE BAGNOLET","48 RUE SADI CARNOT - 93006",48.86815870458364,2.41885728522245,0,
7921116,,"CHATELET","FACE 15 AVENUE VICTORIA - 75104",48.857598970485036,2.348586823364378,0,
7921151,,"GALLIENI","PISTE GARE ROUTIERE - 93006",48.864556047239994,2.4169717525795114,0,
7921150,,"GALLIENI","PISTE GARE ROUTIERE - 93006",48.86529254446127,2.417667626750747,0,
7921159,,"DESCARTES","FACE 2 RUE DESCARTES - 93006",48.86893546938841,2.4260380125430316,0,
7921158,,"DESCARTES","2 RUE DESCARTES - 93006",48.869016233482,2.4262016312842607,0,
7921157,,"PIERRE CURIE","RUE LENINE - 93006",48.868990600448974,2.4244033032798584,0,
7921156,,"PIERRE CURIE","54 RUE LENINE - 93006",48.86895507816368,2.423817439339642,0,
7921155,,"EGLISE DE BAGNOLET","FACE 6-10 RUE LENINE - 93006",48.87006263142268,2.42086295744223,0,
7921154,,"EGLISE DE BAGNOLET","6 RUE LENINE - 93006",48.86989218679323,2.4204131038013523,0,
7921153,,"MAIRIE DE BAGNOLET","29 AVENUE GAMBETTA - 93006",48.86923939789337,2.4155621165197254,0,
7921119,,"EGLISE SAINT-GERVAIS","12 RUE FRANCOIS MIRON - 75104",48.855845636088695,2.355015034282583,0,
7921118,,"HOTEL DE VILLE","FACE AU 2 QUAI DE GESVRES - 75104",48.856061944099835,2.350302602371364,0,
7921117,,"CHATELET","FACE 15 AVENUE VICTORIA - 75104",48.857598970485036,2.348586823364378,0,
7921120,,"RUE DE JOUY","64 RUE FRANCOIS MIRON - 75104",48.85547674635916,2.3575481918629646,0,
7921121,,"SAINT-PAUL","92 RUE SAINT-ANTOINE - 75104",48.854810830609225,2.3620151703493075,0,
7921122,,"SAINT-PAUL","94 RUE SAINT-ANTOINE - 75104",48.854990571006404,2.3620561151975847,0,
7921123,,"BIRAGUE","31-33 RUE SAINT-ANTOINE - 75104",48.8537676322283,2.3649836922579452,0,
7921124,,"BIRAGUE","32 RUE SAINT-ANTOINE - 75104",48.85386641123812,2.365337849043121,0,
7921161,,"LES MALASSIS","FACE 7 RUE PIERRE BROSSOLETTE - 93006",48.87073234403016,2.426831271086477,0,
7921125,,"BASTILLE - RUE SAINT-ANTOINE","1 RUE SAINT-ANTOINE - 75104",48.85319164694081,2.3681838978405163,0,
7921160,,"LES MALASSIS","30 RUE DESCARTES - 93006",48.87097537966868,2.4263276072013027,0,
7921126,,"BASTILLE - FAUBOURG SAINT-ANTOINE","4 RUE DU FAUBOURG SAINT-ANTOINE - 75112",48.8528494234173,2.370771325960331,0,
7921163,,"STALINGRAD","51 RUE RAYMOND LEFEBVRE - 93006",48.872420854813576,2.428291984767649,0,
7921127,,"LA BOULE BLANCHE","58 RUE DU FAUBOURG SAINT-ANTOINE - 75112",48.85188700856417,2.3733582882643787,0,
7921162,,"STALINGRAD","40 RUE RAYMOND LEFEBVRE - 93006",48.87226813294339,2.4282099712526306,0,
7921165,,"GIRARDOT","5 RUE LOUISE MICHEL - 93006",48.87374020730656,2.430596861009217,0,
7921164,,"GIRARDOT","24 RUE LOUISE MICHEL - 93006",48.87378500492672,2.4307740617841693,0,
7921167,,"LOUISE MICHEL","FACE 55 RUE LOUISE MICHEL - 93006",48.87658775595986,2.4324005357009613,0,
7921166,,"LOUISE MICHEL","50 RUE LOUISE MICHEL - 93006",48.87626439856001,2.4321683125499827,0,
7921169,,"LA POSTE","23 RUE ADELAIDE LAHAYE - 93006",48.86754005980411,2.4166630116229832,0,
7921168,,"MARIE-ANNE COLOMBIER","FACE 68 AVENUE GAMBETTA - 93006",48.87054163948335,2.41695370781144,0,
7921129,,"CHARONNE - KELLER","52-54 RUE DE CHARONNE - 75111",48.85317978826655,2.3777581910826306,0,
7921128,,"LEDRU-ROLLIN - FAUBOURG SAINT-ANTOINE","94-96 AVENUE LEDRU-ROLLIN - 75111",48.851868011436785,2.3765859447628928,0,
7921133,,"CHARONNE - VOLTAIRE","114 RUE DE CHARONNE - 75111",48.854740606500755,2.385781362944798,0,
7921170,,"CENTRE DE SANTE","13 RUE SADI CARNOT - 93006",48.86699095256208,2.41796996305945,0,
7921134,,"CHARONNE - VOLTAIRE","111 RUE DE CHARONNE - 75111",48.85465116556298,2.384705331542756,0,
7921131,,"FAIDHERBE","90 RUE DE CHARONNE - 75111",48.85376253870783,2.3817763566273324,0,
7921132,,"FAIDHERBE","93 RUE DE CHARONNE - 75111",48.85421150939266,2.3828390611282813,0,
7921174,,"BASTILLE - RUE SAINT-ANTOINE","6 RUE SAINT-ANTOINE - 75104",48.85337130716259,2.368524486324227,0,
7921137,,"CHARONNE - BAGNOLET","174 RUE DE CHARONNE - 75111",48.856031663567855,2.392946666926619,0,
7921173,,"BASTILLE - FAUBOURG SAINT-ANTOINE","20 RUE DU FAUBOURG SAINT-ANTOINE - 75111",48.853119051005244,2.37075788101229,0,
7921138,,"CHARONNE - BAGNOLET","FACE 180 RUE DE CHARONNE - 75111",48.856453603892085,2.393941384809664,0,
7921172,,"LA BOULE BLANCHE","55 RUE DU FAUBOURG SAINT-ANTOINE - 75111",48.85201275020522,2.3736307537404877,0,
7921135,,"CHARONNE - PHILIPPE AUGUSTE","158 RUE DE CHARONNE - 75111",48.85556545010317,2.390467356843956,0,
7921171,,"LEDRU-ROLLIN - FAUBOURG SAINT-ANTOINE","89 RUE DU FAUBOURG SAINT-ANTOINE - 75111",48.85160782119681,2.375210249532946,0,
7921136,,"CHARONNE - PHILIPPE AUGUSTE","165 RUE DE CHARONNE - 75111",48.85576295980927,2.3909442554287903,0,
7921176,,"HOTEL DE VILLE","62 RUE DE RIVOLI - 75104",48.85726596088864,2.3527954157613853,0,
7921175,,"RUE VIEILLE DU TEMPLE - MAIRIE DU 4E","32 RUE DE RIVOLI - 75104",48.85620478638591,2.357207976821064,0,
7921130,,"CHARONNE - KELLER","111 AVENUE LEDRU-ROLLIN - 75111",48.85312609315956,2.3770771896440324,0,
7921139,,"LA REUNION","56 RUE DE BAGNOLET - 75120",48.85740365312801,2.399199865036614,0,
