stop_id,stop_code,stop_name,stop_desc,stop_lat,stop_lon,location_type,parent_station
3813031,,"RUE DE L'EGLISE","185 AVENUE ACHILLE PERETTI - 92051",48.885383873230644,2.2641558835611693,0,
3813030,,"GENERAL GOURAUD","193 AVENUE ACHILLE PERETTI - 92051",48.8859847711673,2.2621517454852405,0,
3812971,,"GUYNEMER - VAVIN","FACE 80 RUE D'ASSAS - 75106",48.84459455351623,2.3328155557835526,0,
3813033,,"PALAIS DES CONGRES","PLACE DE LA PORTE MAILLOT - 75116",48.87713349214627,2.280504490492322,0,
3812970,,"AUGUSTE COMTE","3 RUE AUGUSTE COMTE - 75106",48.84396550356108,2.338452957917377,0,
3813032,,"ANDRE MAUROIS","RUE JOSEPH ET MARIE HACKIN - 75116",48.87797775885424,2.2793862572396137,0,
3813035,,"CHAMP DE MARS - SUFFREN","40 AVENUE DE SUFFREN - 75115",48.85424900612069,2.295905928636698,0,
3813034,,"CHAMP DE MARS","FACE 1 AVENUE DE SUFFREN - 75115",48.85721318933787,2.2913407772068273,0,
3813037,,"MAINE - VAUGIRARD","30 BOULEVARD DU MONTPARNASSE - 75115",48.845527910899904,2.3188170008674582,0,
3813036,,"GENERAL DETRIE","70 AVENUE DE SUFFREN - 75115",48.852910580642536,2.2979907229916963,0,
3812977,,"MAINE - VAUGIRARD","15-17 BOULEVARD DU MONTPARNASSE - 75106",48.84597723329333,2.318476408387774,0,
3812979,,"DUROC","56 BOULEVARD DES INVALIDES - 75107",48.847369889708794,2.3160519577082312,0,
3812978,,"DUROC","65 BOULEVARD DES INVALIDES - 75107",48.84730704447769,2.3164332779011825,0,
3812973,,"BREA - NOTRE-DAME-DES-CHAMPS","22-24 RUE VAVIN - 75106",48.843794538635784,2.330214827150182,0,
8079723,,"MONTPARNASSE - ALENCON","55 BIS BOULEVARD DU MONTPARNASSE - 75106",48.84434210278122,2.3227527013268157,0,
3812972,,"GUYNEMER - VAVIN","74 RUE D'ASSAS - 75106",48.845124785052576,2.3320257193414142,0,
8079724,,"MONTPARNASSE - ALENCON","62 BOULEVARD DU MONTPARNASSE - 75106",48.84426115609462,2.322276133809656,0,
8079725,,"MONTPARNASSE","PLACE DU 18 JUIN 1940 - 75115",48.84356029881846,2.3236924705759563,0,
3812975,,"MONTPARNASSE - CINEMAS","71 BOULEVARD DU MONTPARNASSE - 75106",48.843695230792875,2.3247817723156867,0,
3813040,,"VAVIN","106 BOULEVARD DU MONTPARNASSE - 75114",48.84213174136296,2.328635561681148,0,
3813043,,"LUXEMBOURG","75 BOULEVARD SAINT-MICHEL - 75105",48.846041587705,2.3402777279421545,0,
3813042,,"ASSAS - DUGUAY TROUIN","7 BIS RUE DUGUAY TROUIN - 75106",48.846203198088325,2.3302962045821793,0,
3813041,,"NOTRE-DAME-DES-CHAMPS","FACE 114 BOULEVARD RASPAIL - 75106",48.84462130823025,2.3289347211572275,0,
3812968,,"LUXEMBOURG","PLACE EDMOND ROSTAND - 75106",48.84723692764369,2.3402097094312153,0,
3813005,,"VICTOR HUGO - POINCARE","RUE BOISSIERE - 75116",48.869325879589496,2.2857035687298266,0,
3813006,,"FOCH","114 AVENUE RAYMOND POINCARE - 75116",48.87204867148559,2.2848561635952063,0,
3813007,,"FOCH","105 AVENUE RAYMOND POINCARE - 75116",48.87194969686829,2.2845974050392037,0,
3813008,,"ALPHAND","130-132 AVENUE DE MALAKOFF - 75116",48.874627733541814,2.2841859399619264,0,
3813009,,"ALPHAND","129 AVENUE DE MALAKOFF - 75116",48.87452875767745,2.2839271698135435,0,
3812969,,"AUGUSTE COMTE","FACE AU 3 RUE AUGUSTE COMTE - 75106",48.84409132834198,2.33850742809364,0,
3813000,,"LUBECK","7 RUE BOISSIERE - 75116",48.865482147227986,2.292791056525757,0,
3813001,,"KLEBER - BOISSIERE","53 AVENUE KLEBER - 75116",48.86750351224367,2.2907186323315973,0,
3813002,,"KLEBER - BOISSIERE","35-37 RUE BOISSIERE - 75116",48.86682903546989,2.289643037236347,0,
3813003,,"LAURISTON","FACE 17 RUE COPERNIC - 75116",48.8691926698059,2.289545503054185,0,
3813004,,"VICTOR HUGO - POINCARE","86 AVENUE RAYMOND POINCARE - 75116",48.87023344066279,2.2853348269419773,0,
3813013,,"PARMENTIER","16 RUE DE CHARTRES - 92051",48.88025162292066,2.2795608611293967,0,
3813015,,"CHARTRES","56 AVENUE DU ROULE - 92051",48.88264994354407,2.2769826985860053,0,
3813014,,"PARMENTIER","13 RUE DE CHARTRES - 92051",48.88064676373605,2.278947232379299,0,
3812991,,"CHAMP DE MARS - SUFFREN","35 AVENUE DE SUFFREN - 75107",48.85485996212512,2.2953606557714696,0,
3812990,,"GENERAL DETRIE","53 AVENUE DE SUFFREN - 75107",48.853243062582976,2.297827040665181,0,
3813011,,"PORTE MAILLOT","155-157 AVENUE DE MALAKOFF - 75116",48.87617323647417,2.283489470456171,0,
3812993,,"TOUR EIFFEL","PONT D'IENA - 75107",48.85938872805018,2.2928780055932574,0,
3812992,,"CHAMP DE MARS","3 AVENUE DE SUFFREN - 75107",48.8573929640932,2.2914087196157196,0,
3813010,,"PORTE MAILLOT","166 AVENUE DE MALAKOFF - 75116",48.876865294272996,2.283570505325071,0,
3812995,,"VARSOVIE","AVENUE DES NATIONS-UNIES - 75116",48.861149770286154,2.291582475434109,0,
3812994,,"TOUR EIFFEL","PONT D'IENA - 75107",48.85920893408429,2.2927555723428803,0,
3812997,,"IENA","12 AVENUE D'IENA - 75116",48.86431414107602,2.2937456069975894,0,
3812996,,"VARSOVIE","AVENUE DES NATIONS UNIES - 75116",48.861203568891256,2.291255516571881,0,
3812999,,"LUBECK","18 RUE BOISSIERE - 75116",48.86586844557507,2.292368426649033,0,
3813017,,"EGLISE SAINT-PIERRE","FACE 103 AVENUE ACHILLE PERETTI - 92051",48.88381571699573,2.272102785565041,0,
3812998,,"IENA","FACE 10 AVENUE D'IENA - 75116",48.864313981081644,2.2933096990151203,0,
3813016,,"CHARTRES","63 AVENUE DU ROULE - 92051",48.88256889254122,2.276655746559639,0,
3813019,,"SAINTE-FOY","FACE 149 AVENUE ACHILLE PERETTI - 92051",48.88481078773734,2.26765896400631,0,
3813018,,"EGLISE SAINT-PIERRE","97 AVENUE ACHILLE PERETTI OU DU ROULE - 92051",48.88361794572945,2.272007643706733,0,
7922758,,"GENERAL GOURAUD","154-164 AVENUE ACHILLE PERETTI - 92051",48.88622746023727,2.262205905418423,0,
7176239,,"VAVIN","103 BOULEVARD DU MONTPARNASSE - 75114",48.84240138591922,2.328894227977574,0,
6904255,,"SAINT-FRANCOIS-XAVIER","18 AVENUE DE VILLARS - 75107",48.85160257095899,2.313789508713465,0,
3813026,,"BINEAU - LA SAUSSAYE","70 BOULEVARD DE LA SAUSSAYE - 92051",48.89234296960201,2.2692298715075285,0,
3813025,,"PERRONET","9 BOULEVARD DU CHATEAU - 92051",48.88891698340574,2.2660316473351942,0,
3813024,,"PERRONET","38 BOULEVARD DE LA SAUSSAYE - 92051",48.89061511122838,2.2652797163507086,0,
3813023,,"LA SAUSSAYE - D'ARGENSON","14 BOULEVARD DE LA SAUSSAYE - 92051",48.88887014166915,2.2629107654791687,0,
3812982,,"SAINT-FRANCOIS-XAVIER","AVENUE DE VILLARS - 75107",48.85167452670786,2.314075471126148,0,
3813022,,"CHATEAU","1 BOULEVARD DU CHATEAU - 92051",48.887828209770674,2.2638526134825514,0,
3812981,,"OUDINOT","48 BOULEVARD DES INVALIDES - 75107",48.84896950529533,2.3151797456823466,0,
3813021,,"CHATEAU","50 AVENUE SAINTE-FOY - 92051",48.887810075624515,2.2635937013202807,0,
3812980,,"OUDINOT","47 BIS BOULEVARD DES INVALIDES - 75107",48.84976038882875,2.3150976993008685,0,
3813020,,"SAINTE-FOY","137-145 AVENUE ACHILLE PERETTI - 92051",48.884523379198406,2.2679727810671557,0,
3812986,,"ECOLE MILITAIRE","5 PLACE DE L'ECOLE MILITAIRE - 75107",48.85435095459782,2.3060387637982704,0,
3812985,,"VAUBAN - HOTEL DES INVALIDES","1 AVENUE DE TOURVILLE - 75107",48.853444477702595,2.3112691100642078,0,
3812984,,"VAUBAN - HOTEL DES INVALIDES","PLACE VAUBAN - 75107",48.853570661304,2.31297146006203,0,
3812989,,"GAL DE BOLLARDIERE","23 PLACE JOFFRE - 75107",48.851338827529844,2.3013284992457086,0,
3813029,,"BINEAU - CHATEAU","39 BOULEVARD DU CHATEAU - 92051",48.8905908731124,2.269940881042864,0,
3812988,,"GAL DE BOLLARDIERE","73 AVENUE DE SUFFREN - 75107",48.8514284907036,2.3006338812033795,0,
3813028,,"HOPITAL AMERICAIN","63 BOULEVARD VICTOR HUGO - 92051",48.893118216644396,2.273481321051235,0,
3812987,,"ECOLE MILITAIRE","PLACE DE L'ECOLE MILITAIRE - 75107",48.85413521286898,2.305875460183321,0,
3813027,,"HOPITAL AMERICAIN","63 BOULEVARD VICTOR HUGO - 92051",48.893118216644396,2.273481321051235,0,
