stop_id,stop_code,stop_name,stop_desc,stop_lat,stop_lon,location_type,parent_station
3682339,,"RABELAIS","AVENUE HENRI VARAGNAT - 93010",48.91695910540304,2.484400525396555,0,
3682337,,"SUZANNE BUISSON","FACE 9 AVENUE LEON BLUM - 93010",48.913892372405016,2.478760482639465,0,
3682338,,"JOUHAUX - BLUM","24 AV LEON BLUM - 93010",48.91759397025851,2.479643308712306,0,
3682335,,"PAUL RENAUD","FACE 5 RUE PAUL RENAUD - 93010",48.9103507449219,2.479377984829767,0,
3682336,,"AMBROISE PARE","FACE 1-3 AVENUE JEAN MOULIN - 93010",48.91050698216253,2.476447040198533,0,
3682333,,"GATINE RN3","54 AVENUE GALLIENI - 93010",48.905007103245715,2.476268671049849,0,
3682334,,"AUGUSTE POLISSARD","6 ROUTE D'AULNAY - 93010",48.90685353237826,2.4804181583345417,0,
3682284,,"LA MARE A LA VEUVE","ROND-POINT GEORGES BRASSENS - 93010",48.890118186198556,2.481489503492388,0,
3682288,,"L'ETOILE","100 ROUTE DE VILLEMOMBLE - 93010",48.8927463896491,2.485599334584045,0,
3682287,,"VARSOVIE","RUE DE VARSOVIE - 93010",48.89363546520329,2.4787460614643035,0,
3682286,,"METZ - ETIENNE DOLET","1 AV DE METZ - 93010",48.89067076760361,2.477838448808409,0,
3682285,,"PLACE MENDES FRANCE","96 PL MENDES FRANCE - 93010",48.88939625193998,2.4839134105672915,0,
3682289,,"PIERRE CURIE","ROUTE DE VILLEMOMBLE - 93010",48.892123042361185,2.4881735184332183,0,
3682332,,"LYCEES VIONNET - RENOIR","1 RUE JULES GUESDE - 93010",48.90426396581919,2.4738536981285146,0,
3682331,,"EGLISE DE BONDY","75 RUE JULES GUESDE - 93010",48.90306932325303,2.480952996252528,0,
3682330,,"BLANQUI - CARNOT.","49 AVENUE CARNOT - 93010",48.90015655155534,2.4817355499715297,0,
3682326,,"VAILLANT - SOLIDARITE","84 R EDOUARD VAILLANT - 93010",48.89549740240577,2.4848439099106594,0,
3682327,,"EDOUARD VAILLANT - CARNOT","127 AVENUE CARNOT - 93010",48.89665354956417,2.4800901054993765,0,
3682328,,"BLANQUI - CARNOT","49 AVENUE CARNOT - 93010",48.900075717229335,2.4816944299365256,0,
3682329,,"BLANQUI - CARNOT","49 AVENUE CARNOT - 93010",48.900075717229335,2.4816944299365256,0,
3682322,,"CORNEILLE","164 R EDOUARD VAILLANT - 93010",48.89451778813507,2.4919423974845074,0,
3682323,,"LA REMISE A JORELLE","131 RUE EDOUARD VAILLANT - 93010",48.895070151594346,2.488713680079425,0,
3682324,,"LA REMISE A JORELLE","FACE 131 R EDOUARD VAILLANT - 93010",48.89497134506774,2.4886725006790553,0,
3682291,,"PHILOSOPHIE","42 RUE SAINT-LOUIS PROLONGEE - 93010",48.89056871610303,2.4947654542780087,0,
3682290,,"LA SABLIERE","FACE 21 ROUTE DE VILLEMOMBLE - 93010",48.89124834937275,2.4904743115017753,0,
3682325,,"VAILLANT - SOLIDARITE","FACE 76 RUE EDOUARD VAILLANT - 93010",48.89559615956323,2.484925973405418,0,
3682293,,"FRANKLIN - SABLIERE","FACE 45 AVENUE FRANKLIN - 93077",48.89467753886772,2.5002027365048076,0,
3682292,,"FRANKLIN - COQUETIERS","8 AVENUE FRANKLIN - 93077",48.89269402898734,2.4982474651445354,0,
3682295,,"LES COQUETIERS","261 RUE EDOUARD VAILLANT - 93010",48.8937544568861,2.498291649002699,0,
3682294,,"ANATOLE FRANCE - BLANQUI","38 AVENUE ANATOLE FRANCE - 93010",48.89540609193745,2.4997688567730845,0,
3682297,,"CORNEILLE","RUE EDOUARD VAILLANT - 93010",48.89460732315696,2.492201636932791,0,
3682296,,"ALOUETTES","241 RUE DES ALOUETTES - 93010",48.89401766478635,2.496370642162232,0,
3682299,,"VAILLANT - SOLIDARITE","FACE 76 RUE EDOUARD VAILLANT - 93010",48.89559615956323,2.484925973405418,0,
3682298,,"LA REMISE A JORELLE","131 RUE EDOUARD VAILLANT - 93010",48.895070151594346,2.488713680079425,0,
3682321,,"CORNEILLE","RUE EDOUARD VAILLANT - 93010",48.89460732315696,2.492201636932791,0,
3682320,,"ALOUETTES","228 R EDOUARD VAILLANT - 93010",48.89379192840858,2.497160483465929,0,
3682313,,"PHILOSOPHIE","R ALEXIS CARREL - 93010",48.88964325369976,2.4945990960401216,0,
3682314,,"FRANKLIN - COQUETIERS","8 AVENUE FRANKLIN - 93077",48.89269402898734,2.4982474651445354,0,
3682311,,"LA SABLIERE","FACE 134 RTE DE VILLEMOMBLE - 93010",48.89154517079348,2.4902843786694984,0,
3682312,,"PHILOSOPHIE","42 RUE SAINT-LOUIS PROLONGEE - 93010",48.89056871610303,2.4947654542780087,0,
3682317,,"LES COQUETIERS","261 RUE EDOUARD VAILLANT - 93010",48.8937544568861,2.498291649002699,0,
3682318,,"LES COQUETIERS","AV ANATOLE FRANCE - 93010",48.89274863193003,2.497743338489926,0,
3682315,,"FRANKLIN - SABLIERE","FACE 45 AVENUE FRANKLIN - 93077",48.89467753886772,2.5002027365048076,0,
3682316,,"ANATOLE FRANCE - BLANQUI","38 AVENUE ANATOLE FRANCE - 93010",48.89540609193745,2.4997688567730845,0,
3682356,,"DOLET-BELFORT","FACE 27 RUE ETIENNE DOLET - 93010",48.891632731492024,2.477554842271514,0,
3682319,,"ALOUETTES","241 RUE DES ALOUETTES - 93010",48.89401766478635,2.496370642162232,0,
3682355,,"GARE DE BONDY RER","FACE 11 RUE DE LA LIBERTE - 93010",48.89488477495945,2.4786676912632446,0,
3682350,,"BLANQUI - FURCI","71 RUE LOUIS AUGUSTE BLANQUI - 93010",48.89908422197564,2.4840771420758485,0,
3682353,,"FRATERNITE","6 BIS RUE DE LA FRATERNITE - 93010",48.89888685045415,2.4762931462601703,0,
3682354,,"SALENGRO","106 RUE SALENGRO - 93010",48.89701657388483,2.477105972939903,0,
3682351,,"EGLISE DE BONDY.","75 RUE JULES GUESDE - 93010",48.90309643229558,2.480830380327358,0,
3682352,,"LE MAINGUY","32 RUE JEAN JAURES - 93010",48.9002438871064,2.4763104190381524,0,
3682310,,"LA SABLIERE","FACE 21 ROUTE DE VILLEMOMBLE - 93010",48.89124834937275,2.4904743115017753,0,
3682300,,"GARE DE BONDY RER","FACE 11 RUE DE LA LIBERTE - 93010",48.89488477495945,2.4786676912632446,0,
3682301,,"LA MARE A LA VEUVE","ROND-POINT GEORGES BRASSENS - 93010",48.890118186198556,2.481489503492388,0,
3682302,,"LA MARE A LA VEUVE","ROND-POINT GEORGES BRASSENS - 93010",48.890118186198556,2.481489503492388,0,
3682303,,"PLACE MENDES FRANCE","96 PL MENDES FRANCE - 93010",48.88939625193998,2.4839134105672915,0,
3682304,,"METZ - ETIENNE DOLET","1 AV DE METZ - 93010",48.89067076760361,2.477838448808409,0,
3682305,,"VARSOVIE","RUE DE VARSOVIE - 93010",48.89363546520329,2.4787460614643035,0,
3682306,,"VARSOVIE","FACE 24 ROUTE DE VILLEMOMBLE - 93010",48.89367013081008,2.4798229154480134,0,
3682307,,"L'ETOILE","100 ROUTE DE VILLEMOMBLE - 93010",48.8927463896491,2.485599334584045,0,
3682308,,"L'ETOILE","FACE 100 ROUTE DE VILLEMOMBLE - 93010",48.8928360914602,2.485735887820397,0,
3682345,,"LEO LAGRANGE","2 AVENUE VERDUN - 93010",48.90636673535672,2.4888966678640814,0,
3682344,,"HOPITAL JEAN VERDIER","CHEMIN DU PONT - 93010",48.9089622306807,2.4902812877065927,0,
3682309,,"PIERRE CURIE","ROUTE DE VILLEMOMBLE - 93010",48.892123042361185,2.4881735184332183,0,
3682347,,"HENRI SELLIER","3-5 RUE DES 5 ORMES - 93010",48.90214628074003,2.4931647955004856,0,
3682346,,"LE SAULE BLANC","FACE 41 AVENUE DE VERDUN - 93010",48.903477789107185,2.4920782060277697,0,
3682349,,"BLANQUI - BERNSTEIN","FACE 130BI RUE LOUIS AUGUSTE BLANQUI - 93010",48.89829576473624,2.4893228755208097,0,
3682348,,"PROFESSEUR VAILLANT","FACE 23 RUE DU PROFESSEUR VAILLANT - 93010",48.899443523682145,2.491343689032779,0,
3682340,,"SUZANNE BUISSON.","AV HENRI VARAGNAT - 93010",48.91355557744985,2.482318323064238,0,
3682341,,"BENHAMOU - PROMENADE","AV MAURICE BENHAMOU - 93010",48.91230328894942,2.4848372486814627,0,
3682342,,"RONSARD - VILLON","VOIE PROMENADE - 93010",48.91320811924115,2.4871305076505736,0,
3682343,,"BOIS DE BONDY","51 AVENUE DU 14 JUILLET - 93010",48.91352629897765,2.491331036642813,0,
