stop_id,stop_code,stop_name,stop_desc,stop_lat,stop_lon,location_type,parent_station
7920869,,"RUE DE PARIS","20 AVENUE BENOIT FRACHON - 75120",48.85392494426368,2.415443658762252,0,
7920868,,"RUE DE PARIS","AVENUE BENOIT FRACHON - 75120",48.853934110216926,2.415171284434349,0,
7920865,,"DAVOUT - LAGNY","29-31 BOULEVARD DAVOUT - 75120",48.84941597594749,2.4111471224982988,0,
7920864,,"DAVOUT - LAGNY","24 BOULEVARD DAVOUT - 75120",48.849379814295574,2.4114875262551396,0,
7920867,,"PLACE DE LA PORTE DE MONTREUIL","5 AVENUE DE LA PORTE DE MONTREUIL - 75120",48.85375674402973,2.4114393132415595,0,
7920866,,"PLACE DE LA PORTE DE MONTREUIL","8 AVENUE DE LA PORTE DE MONTREUIL - 75120",48.853621634419675,2.411915796355209,0,
7920860,,"MARSOULAN","44 COURS DE VINCENNES - 75120",48.84765930770116,2.4028105519305467,0,
7920861,,"MARSOULAN","39 COURS DE VINCENNES - 75120",48.84787500756238,2.402810824531941,0,
7920862,,"PYRENEES - DOCTEUR NETTER","82-84 COURS DE VINCENNES - 75112",48.84730663534896,2.406623052580046,0,
7920863,,"PORTE DE VINCENNES","116 COURS DE VINCENNES - 75112",48.84700789118935,2.4102313138152516,0,
7920859,,"NATION - TRONE","2 AVENUE DU TRONE - 75112",48.84804881525517,2.39702345382582,0,
7920858,,"NATION - DIDEROT","BOULEVARD DIDEROT - 75112",48.84831065096546,2.3945861464375446,0,
7920857,,"NATION - DIDEROT","BOULEVARD DIDEROT - 75112",48.848139862388855,2.3946404292036383,0,
7920856,,"PIERRE BOURDAN","107 BOULEVARD DIDEROT - 75112",48.84789913516272,2.390473110144288,0,
7920855,,"PIERRE BOURDAN","156 BOULEVARD DIDEROT - 75112",48.84769207337035,2.3912491103043525,0,
7920854,,"REUILLY - DIDEROT","81 BOULEVARD DIDEROT - 75112",48.84752295573372,2.387490443468507,0,
7920853,,"REUILLY - DIDEROT","116 BOULEVARD DIDEROT - 75112",48.847181924666934,2.386305379345434,0,
7920851,,"CHARLES BOSSUT","139 AVENUE DAUMESNIL - 75112",48.843318315289224,2.383755418962855,0,
7920852,,"COLONEL BOURGOIN","2 RUE CHALIGNY - 75112",48.84526870280921,2.38351205901422,0,
7920850,,"MAIRIE DU 12EME","208 RUE DE CHARENTON - 75112",48.84107897795046,2.3873071951727027,0,
7920886,,"QUAI DE LA GARE","6-8 BOULEVARD VINCENT AURIOL - 75113",48.83739923465442,2.3729942148274388,0,
7920842,,"QUAI DE LA GARE","13-15 BOULEVARD VINCENT AURIOL - 75113",48.83658153162294,2.3724354428226153,0,
7920843,,"BERCY - ARENA","8 BOULEVARD DE BERCY - 75112",48.83928513903691,2.3776384188318724,0,
7920844,,"BERCY - ARENA","3 BOULEVARD DE BERCY - 75112",48.83930344711825,2.376644497084707,0,
7920845,,"GARE DE BERCY","42-44 BOULEVARD DE BERCY - 75112",48.840002834777216,2.381328844496672,0,
7920846,,"GARE DE BERCY","15 BOULEVARD DE BERCY - 75112",48.84009247169696,2.3819688617960826,0,
7920847,,"DUGOMMIER","58 BOULEVARD DE BERCY - 75112",48.83888588896809,2.3876046193384353,0,
7920848,,"DUGOMMIER","21 BOULEVARD DE BERCY - 75112",48.83902925371723,2.3886259202812146,0,
7920849,,"MAIRIE DU 12EME","FACE 210-212 RUE DE CHARENTON - 75112",48.84102494940797,2.3875522313060595,0,
7920841,,"VINCENT AURIOL","2 AVENUE PIERRE MENDES-FRANCE - 75113",48.83670773674378,2.371128499919556,0,
7920840,,"VINCENT AURIOL","15 AVENUE PIERRE MENDES-FRANCE - 75113",48.83685160358952,2.3708971402492605,0,
7920880,,"VALMY - ARMAND CARREL","RUE DE VALMY - 93048",48.85076882200282,2.4177268219797488,0,
7920881,,"PORTE DE VINCENNES","107-109 COURS DE VINCENNES - 75120",48.847196561844825,2.410340520344024,0,
7920882,,"PYRENEES - DOCTEUR NETTER","73 COURS DE VINCENNES - 75120",48.84752230352113,2.406677811879984,0,
7920883,,"NATION - TRONE","1 AVENUE DU TRONE - 75111",48.84848909962392,2.397228230767454,0,
7920884,,"COLONEL BOURGOIN","5-7 RUE CHALIGNY - 75112",48.845529388229224,2.383389736707723,0,
7920885,,"CHARLES BOSSUT","102 AVENUE DAUMESNIL - 75112",48.843048630831994,2.3839049592217068,0,
7920878,,"VINCENNES RER - REPUBLIQUE","2 AVENUE ANTOINE QUINSON - 94080",48.847156087985,2.4297728193534036,0,
7920877,,"VINCENNES RER - REPUBLIQUE","2 AVENUE ANTOINE QUINSON - 94080",48.847156087985,2.4297728193534036,0,
7920839,,"CITE DE LA MODE ET DU DESIGN","AVENUE PIERRE MENDES-FRANCE - 75113",48.84058201232279,2.368816327199685,0,
7920876,,"LES LAITIERES","FACE 94 RUE ROBESPIERRE - 93048",48.849450768106884,2.4260046618007154,0,
7920875,,"LES LAITIERES","100 RUE ROBESPIERRE - 93048",48.849549833034985,2.4257324661373545,0,
7920879,,"CUVIER-EMILE ZOLA","38-42 RUE CUVIER - 93048",48.851044127239234,2.422480157718032,0,
7920837,,"GARE D'AUSTERLITZ","1 PLACE VALHUBERT - 75113",48.84362972449656,2.365059973309424,0,
7920838,,"CITE DE LA MODE ET DU DESIGN","59 AVENUE PIERRE MENDES-FRANCE - 75113",48.840366307524064,2.368829811809347,0,
7920836,,"GARE D'AUSTERLITZ","1 PLACE VALHUBERT - 75113",48.84362972449656,2.365059973309424,0,
7920870,,"ELSA TRIOLET - ERIGNAC","RUE ELSA TRIOLET - 93048",48.85126420779466,2.416120583177573,0,
7920873,,"PROGRES - EMILE ZOLA","RUE DU PROGRES - 93048",48.85186244290155,2.421841415670256,0,
7920874,,"CUVIER","82 RUE ROBESPIERRE - 93048",48.850647019372666,2.4247674209220653,0,
7920871,,"ELSA TRIOLET - ERIGNAC","RUE CLAUDE ERIGNAC - 93048",48.85106655559217,2.4160113334147124,0,
7920872,,"PROGRES - ARMAND CARREL","37 RUE DU PROGRES - 93048",48.85165796125804,2.4186406617304943,0,
